City_ID,City,Lat,Lng,Max Temp,Humidity,Cloudiness,Wind Speed,Country,Date
0,byron bay,-28.65,153.6167,27.75,61,92,3.98,AU,1675819711
1,rikitea,-23.1203,-134.9692,26.67,68,7,5.0,PF,1675819593
2,cockburn town,21.4612,-71.1419,25.48,75,0,10.11,TC,1675819711
3,tuatapere,-46.1333,167.6833,12.51,66,81,6.51,NZ,1675819711
4,castro,-24.7911,-50.0119,16.99,92,26,2.48,BR,1675819689
5,busselton,-33.65,115.3333,22.42,57,0,3.71,AU,1675819712
6,olinda,-8.0089,-34.8553,26.85,61,20,2.57,BR,1675819713
7,atuona,-9.8,-139.0333,26.07,76,19,6.78,PF,1675819540
8,tasiilaq,65.6145,-37.6368,-16.91,35,0,16.15,GL,1675819511
9,ushuaia,-54.8,-68.3,9.81,71,20,5.14,AR,1675819492
10,stromness,58.965,-3.296,5.49,77,100,11.18,GB,1675819714
11,arraial do cabo,-22.9661,-42.0278,24.16,90,100,1.79,BR,1675819618
12,jalu,29.0331,21.5482,9.75,57,93,3.27,LY,1675819714
13,chokurdakh,70.6333,147.9167,-39.12,100,100,1.73,RU,1675819608
14,hermanus,-34.4187,19.2345,19.89,82,0,5.35,ZA,1675819560
15,ribeira grande,38.5167,-28.7,13.21,65,1,3.58,PT,1675819715
16,tuktoyaktuk,69.4541,-133.0374,-32.0,75,100,1.54,CA,1675819553
17,avarua,-21.2078,-159.775,29.03,74,20,5.66,CK,1675819552
18,anloga,5.7947,0.8973,26.95,82,37,4.48,GH,1675819716
19,new norfolk,-42.7826,147.0587,17.73,36,4,0.94,AU,1675819716
20,barrow,71.2906,-156.7887,-17.99,78,100,3.6,US,1675819686
21,kapaa,22.0752,-159.319,26.18,88,100,6.17,US,1675819617
22,bredasdorp,-34.5322,20.0403,18.93,77,21,3.68,ZA,1675819706
23,pati,-6.7559,111.038,24.02,95,100,1.72,ID,1675819717
24,evansville,37.9748,-87.5558,10.11,87,100,2.06,US,1675819717
25,severo-kurilsk,50.6789,156.125,-4.1,54,12,4.38,RU,1675819449
26,amambai,-23.1042,-55.2258,22.47,71,66,1.09,BR,1675819718
27,sitka,57.0531,-135.33,3.94,75,20,1.54,US,1675819718
28,ilulissat,69.2167,-51.1,-26.99,76,100,2.57,GL,1675819700
29,ponta do sol,32.6667,-17.1,15.56,63,34,2.93,PT,1675819719
30,pevek,69.7008,170.3133,-29.74,92,100,1.3,RU,1675819719
31,naze,28.3667,129.4833,17.51,74,100,6.51,JP,1675819720
32,shingu,33.7333,135.9833,12.2,52,12,2.56,JP,1675819720
33,punta arenas,-53.15,-70.9167,12.06,76,0,4.12,CL,1675819232
34,quatre cocos,-20.2078,57.7625,26.06,81,40,6.76,MU,1675819701
35,bluff,-46.6,168.3333,14.33,61,67,11.15,NZ,1675819721
36,alofi,-19.0595,-169.9187,26.94,83,100,3.6,NU,1675819721
37,sao filipe,14.8961,-24.4956,20.23,67,17,4.16,CV,1675819722
38,qaanaaq,77.484,-69.3632,-31.57,67,7,2.82,GL,1675819722
39,beloha,-25.1667,45.05,23.21,80,100,3.76,MG,1675819723
40,mataura,-46.1927,168.8643,14.15,75,83,4.67,NZ,1675819723
41,mathbaria,22.2876,89.9593,18.4,89,0,2.02,BD,1675819724
42,dokka,60.84,10.0618,-7.95,98,55,1.6,NO,1675819724
43,east london,-33.0153,27.9116,21.66,84,100,5.62,ZA,1675819724
44,bandiagara,14.3501,-3.6104,25.44,16,100,3.66,ML,1675819725
45,karratha,-20.7377,116.8463,32.63,45,19,2.81,AU,1675819725
46,kachiry,53.0675,76.1036,-21.2,100,99,1.38,KZ,1675819726
47,petropavlovsk-kamchatskiy,53.0452,158.6483,-10.67,52,20,3.0,RU,1675819726
48,codrington,-38.2667,141.9667,18.99,58,75,6.82,AU,1675819726
49,clyde river,70.4692,-68.5914,-34.87,68,0,2.06,CA,1675819727
50,prosperous,53.2903,-6.7539,7.28,94,100,3.29,IE,1675819727
51,butaritari,3.0707,172.7902,27.23,80,100,9.71,KI,1675819727
52,yulara,-25.2406,130.9889,34.71,23,0,5.03,AU,1675819728
53,carnarvon,-24.8667,113.6333,27.43,56,1,7.64,AU,1675819728
54,borba,-4.3878,-59.5939,23.28,98,100,1.07,BR,1675819729
55,victoria,22.2855,114.1577,18.31,87,97,5.81,HK,1675819693
56,albany,42.6001,-73.9662,1.36,81,100,0.45,US,1675819459
57,ilanskiy,56.2358,96.065,-8.49,96,100,2.12,RU,1675819729
58,canutama,-6.5339,-64.3831,23.15,97,100,0.76,BR,1675819730
59,saint anthony,45.0205,-93.218,-1.03,77,0,2.06,US,1675819687
60,chuy,-33.6971,-53.4616,22.36,75,45,4.17,UY,1675819488
61,gazanjyk,39.2446,55.5154,9.84,52,100,3.83,TM,1675819730
62,cidreira,-30.1811,-50.2056,24.31,79,26,5.84,BR,1675819702
63,storforshei,66.4043,14.5233,3.88,64,100,1.54,NO,1675819731
64,andilamena,-17.0167,48.5833,18.87,89,100,2.2,MG,1675819731
65,svetlyy,54.675,20.1347,1.03,81,100,4.75,RU,1675819732
66,batamshinskiy,50.5594,58.2747,-19.09,100,100,4.97,KZ,1675819732
67,luwuk,-0.9516,122.7875,26.71,83,100,1.67,ID,1675819733
68,bull savanna,17.8868,-77.5902,22.65,80,1,4.1,JM,1675819733
69,upernavik,72.7868,-56.1549,-29.63,97,60,1.47,GL,1675819657
70,altagracia de orituco,9.8601,-66.3814,21.38,87,74,2.82,VE,1675819734
71,hofn,64.2539,-15.2082,0.43,61,100,9.83,IS,1675819734
72,jamestown,42.097,-79.2353,7.8,70,75,7.2,US,1675819716
73,khandyga,62.6667,135.6,-41.89,99,99,0.62,RU,1675819735
74,hayden,47.766,-116.7866,3.45,90,100,6.17,US,1675819735
75,port alfred,-33.5906,26.891,20.66,90,100,1.34,ZA,1675819736
76,samarai,-10.6167,150.6667,27.83,77,100,4.93,PG,1675819736
77,camana,-16.6228,-72.7111,23.97,84,84,3.08,PE,1675819737
78,lusambo,-4.9667,23.45,20.99,96,100,0.85,CD,1675819737
79,atar,20.5169,-13.0499,15.51,28,4,5.14,MR,1675819738
80,rosarito,32.3333,-117.0333,18.01,47,0,2.52,MX,1675819738
81,smithers,54.7804,-127.1743,-3.82,100,75,1.03,CA,1675819738
82,hobart,-42.8794,147.3294,17.37,67,75,6.17,AU,1675819213
83,dingle,10.9995,122.6711,26.24,79,100,5.33,PH,1675819739
84,yellowknife,62.456,-114.3525,-19.71,77,75,2.57,CA,1675819596
85,stepnogorsk,52.3544,71.8869,-16.4,98,100,1.22,KZ,1675819739
86,lebu,-37.6167,-73.65,14.99,89,0,7.57,CL,1675819719
87,nanortalik,60.1432,-45.2371,-15.3,72,8,8.65,GL,1675819740
88,mar del plata,-38.0023,-57.5575,23.38,93,40,8.94,AR,1675819680
89,port lincoln,-34.7333,135.8667,22.68,62,7,5.11,AU,1675819741
90,senador jose porfirio,-2.5908,-51.9542,23.98,92,100,1.56,BR,1675819741
91,tchollire,8.4022,14.1698,21.55,18,8,1.3,CM,1675819741
92,srednekolymsk,67.45,153.6833,-33.62,97,100,2.25,RU,1675819742
93,luderitz,-26.6481,15.1594,18.61,83,38,8.53,NA,1675819157
94,boulder city,35.9786,-114.8325,13.68,26,0,1.54,US,1675819742
95,henties bay,-22.116,14.2845,18.24,89,26,2.21,NA,1675819743
96,maldonado,-34.6667,-54.9167,22.9,75,16,3.59,UY,1675819743
97,ahipara,-35.1667,173.1667,22.44,53,36,3.18,NZ,1675819705
98,kirakira,-10.4544,161.9205,28.15,83,100,4.71,SB,1675819558
99,bereda,43.2686,-7.5406,-0.48,88,93,1.89,ES,1675819744
100,otradnoye,59.7775,30.8181,-0.97,87,100,4.61,RU,1675819647
101,leh,34.1667,77.5833,-20.61,63,10,1.55,IN,1675819744
102,gamba,-2.65,10.0,24.71,83,57,0.8,GA,1675819745
103,cabo san lucas,22.8909,-109.9124,22.17,59,40,2.06,MX,1675819241
104,zemio,5.0314,25.1361,21.01,23,68,1.64,CF,1675819745
105,manaure,11.7751,-72.4445,25.33,74,0,8.64,CO,1675819746
106,poum,-20.2333,164.0167,26.66,84,100,5.25,NC,1675819746
107,tual,-5.6667,132.75,27.38,79,100,10.24,ID,1675819747
108,iqaluit,63.7506,-68.5145,-33.15,75,75,0.0,CA,1675819579
109,esperance,-33.8667,121.9,20.99,67,98,4.85,AU,1675819747
110,dikson,73.5069,80.5464,-23.01,90,100,9.58,RU,1675819748
111,palmer,42.1584,-72.3287,1.65,68,100,4.12,US,1675819628
112,maningrida,-12.0667,134.2667,30.85,61,74,3.84,AU,1675819748
113,axim,4.8699,-2.2405,25.36,86,100,1.45,GH,1675819748
114,longyearbyen,78.2186,15.6401,-5.09,80,75,8.23,SJ,1675819711
115,umba,66.6871,34.3429,-1.21,88,11,5.42,RU,1675819749
116,muros,42.7762,-9.0603,6.72,83,99,8.48,ES,1675819750
117,inyonga,-6.7167,32.0667,16.94,92,45,1.53,TZ,1675819750
118,hilo,19.7297,-155.09,26.27,92,100,6.69,US,1675819751
119,araouane,18.9048,-3.5265,20.13,18,0,5.7,ML,1675819751
120,kuching,1.55,110.3333,28.47,86,20,1.54,MY,1675819752
121,awbari,26.5921,12.7805,13.41,33,100,6.18,LY,1675819752
122,ronne,55.1009,14.7066,1.95,80,20,4.12,DK,1675819752
123,tiksi,71.6872,128.8694,-35.16,99,100,2.38,RU,1675819502
124,borazjan,29.2666,51.2159,15.2,83,100,1.16,IR,1675819753
125,richards bay,-28.783,32.0377,22.89,96,4,1.43,ZA,1675819754
126,kindu,-2.95,25.95,22.33,87,98,1.27,CD,1675819754
127,morro bay,35.3658,-120.8499,16.49,74,100,3.07,US,1675819683
128,saint-philippe,-21.3585,55.7679,24.77,83,94,6.23,RE,1675819528
129,praia,14.9215,-23.5087,20.3,60,40,9.26,CV,1675819755
130,faya,18.3851,42.4509,11.06,67,6,1.52,SA,1675819744
131,trinidad,-14.8333,-64.9,23.7,95,100,0.64,BO,1675819755
132,tiznit,29.5833,-9.5,7.65,91,0,0.23,MA,1675819694
133,georgetown,5.4112,100.3354,26.96,85,20,4.12,MY,1675819257
134,hay river,60.8156,-115.7999,-20.01,77,40,2.06,CA,1675819756
135,haines junction,60.7522,-137.5108,-4.03,93,25,0.0,CA,1675819756
136,larsnes,62.2028,5.5773,7.78,66,100,7.94,NO,1675819757
137,erenhot,43.6475,111.9767,-9.73,66,100,1.82,CN,1675819757
138,deputatskiy,69.3,139.9,-42.91,99,56,1.81,RU,1675819733
139,hamilton,39.1834,-84.5333,12.09,89,100,4.63,US,1675819757
140,gravdal,68.1214,13.5031,5.33,78,100,20.04,NO,1675819758
141,balaipungut,1.05,101.2833,25.67,84,93,0.36,ID,1675819758
142,lagoa,39.05,-27.9833,13.28,58,100,6.88,PT,1675819685
143,ancud,-41.8697,-73.8203,14.57,93,0,1.74,CL,1675819759
144,hovd,48.0056,91.6419,-18.23,77,94,0.79,MN,1675819759
145,torbay,47.6666,-52.7314,-3.57,86,75,9.77,CA,1675819760
146,komsomolskiy,40.4272,71.7189,0.4,80,98,3.09,UZ,1675819760
147,vostok,46.4856,135.8833,-15.82,82,100,3.45,RU,1675819761
148,mabaruma,8.2,-59.7833,22.11,98,21,1.29,GY,1675819761
149,zlobin,45.2924,14.6541,-3.39,51,0,3.6,HR,1675819761
150,lucea,18.451,-78.1736,25.92,79,0,6.65,JM,1675819762
151,santa isabel,-23.3156,-46.2214,20.61,98,82,0.5,BR,1675819762
152,salalah,17.0151,54.0924,20.05,52,0,1.54,OM,1675819600
153,gawler,-34.6,138.7333,33.39,26,0,3.05,AU,1675819763
154,kimberley,-28.7323,24.7623,18.49,76,100,1.38,ZA,1675819763
155,nayoro,44.3506,142.4578,-4.85,88,100,2.66,JP,1675819764
156,bethel,41.3712,-73.414,3.2,76,100,1.54,US,1675819694
157,vaini,-21.2,-175.2,28.09,89,75,3.09,TO,1675819764
158,acapulco,16.8634,-99.8901,26.9,69,20,4.63,MX,1675819714
159,ahuimanu,21.4447,-157.8378,26.84,75,40,9.26,US,1675819765
160,kodiak,57.79,-152.4072,-1.27,51,0,7.72,US,1675819684
161,khorramshahr,30.4397,48.1664,9.98,76,0,0.0,IR,1675819765
162,walvis bay,-22.9575,14.5053,18.94,88,34,2.57,NA,1675819766
163,kupino,54.3663,77.2981,-19.39,99,100,1.92,RU,1675819766
164,pringsewu,-5.3582,104.9744,24.32,91,99,0.16,ID,1675819766
165,cabedelo,-6.9811,-34.8339,25.37,71,100,4.21,BR,1675819767
166,narrabri,-30.3167,149.7833,30.85,46,0,1.34,AU,1675819767
167,atasu,48.6814,71.6433,-16.82,97,100,2.13,KZ,1675819768
168,nangal,31.3667,76.3833,11.38,49,98,1.9,IN,1675819768
169,cherskiy,68.75,161.3,-34.67,97,100,2.39,RU,1675819768
170,grindavik,63.8424,-22.4338,-2.74,68,75,12.35,IS,1675819767
171,xingyi,24.1877,102.817,9.5,57,0,1.47,CN,1675819769
172,canatlan,24.5167,-104.7833,15.05,17,61,5.77,MX,1675819769
173,mayumba,-3.432,10.6554,25.07,86,95,0.68,GA,1675819770
174,laguna,38.421,-121.4238,14.4,61,0,0.45,US,1675819479
175,gweta,-20.1833,25.2333,24.35,57,60,2.2,BW,1675819770
176,puerto ayora,-0.7393,-90.3518,26.42,92,27,4.02,EC,1675819771
177,atbasar,51.8,68.3333,-15.41,97,95,1.79,KZ,1675819771
178,havelock,34.8791,-76.9013,13.99,73,0,2.06,US,1675819771
179,bongandanga,1.5,21.05,23.88,33,100,0.84,CD,1675819772
180,samarkand,39.6542,66.9597,6.68,49,75,3.09,UZ,1675819772
181,carlsbad,33.1581,-117.3506,18.95,46,0,3.6,US,1675819616
182,kaitangata,-46.2817,169.8464,14.57,54,11,7.13,NZ,1675819622
183,bridlington,54.0831,-0.1919,6.05,89,18,4.29,GB,1675819500
184,adeje,28.1227,-16.726,14.62,68,75,2.57,ES,1675819773
185,cape town,-33.9258,18.4232,21.23,71,0,6.17,ZA,1675819500
186,kangaatsiaq,68.3065,-53.4641,-27.15,86,100,2.14,GL,1675819740
187,constitucion,-35.3333,-72.4167,15.35,73,0,4.07,CL,1675819710
188,jumla,29.2747,82.1838,0.77,51,0,1.61,NP,1675819774
189,huarmey,-10.0681,-78.1522,22.64,82,9,2.77,PE,1675819774
190,vestmanna,62.1564,-7.1664,7.51,87,100,16.98,FO,1675819775
191,anjozorobe,-18.4,47.8667,16.08,95,100,2.21,MG,1675819775
192,provideniya,64.3833,-173.3,-18.94,65,100,2.0,RU,1675819776
193,nizhniy ingash,56.2,96.53,-8.33,97,100,1.75,RU,1675819776
194,russell,32.3502,-85.1999,17.57,76,0,0.0,US,1675819776
195,gornopravdinsk,60.05,69.9,-28.71,100,100,1.18,RU,1675819777
196,quba,41.3626,48.5152,-1.96,91,100,0.91,AZ,1675819777
197,talaya,61.3833,152.75,-36.63,96,100,0.62,RU,1675819777
198,kamenka,51.3223,42.7678,-14.3,95,7,3.93,RU,1675819778
199,thompson,55.7435,-97.8558,-15.91,85,100,1.54,CA,1675819712
200,sorland,67.667,12.6934,5.92,78,100,20.76,NO,1675819779
201,port elizabeth,-33.918,25.5701,20.73,91,40,2.57,ZA,1675819503
202,roma,43.2128,-75.4557,6.04,87,100,3.6,US,1675819580
203,saint-augustin,51.226,-58.6502,-19.88,87,18,2.15,CA,1675819779
204,puerto el triunfo,13.2833,-88.55,25.95,71,6,2.97,SV,1675819780
205,saint-pierre,-21.3393,55.4781,24.82,78,72,2.57,RE,1675819681
206,faanui,-16.4833,-151.75,27.28,73,29,5.36,PF,1675819739
207,bulgan,48.8125,103.5347,-19.45,93,9,1.68,MN,1675819781
208,luau,-10.7073,22.2247,17.67,93,100,1.34,AO,1675819781
209,oum hadjer,13.2954,19.6966,21.07,20,91,4.82,TD,1675819781
210,qaqortoq,60.7167,-46.0333,-24.65,67,0,3.19,GL,1675819255
211,tabou,4.423,-7.3528,26.1,86,100,2.82,CI,1675819230
212,hithadhoo,-0.6,73.0833,27.31,71,11,3.89,MV,1675819782
213,xiaolingwei,32.0333,118.85,5.99,65,100,4.92,CN,1675819782
214,klaksvik,62.2266,-6.589,8.51,82,100,25.05,FO,1675819783
215,yeniseysk,58.4497,92.1703,-9.22,95,100,2.51,RU,1675819783
216,bambous virieux,-20.3428,57.7575,26.14,83,40,4.63,MU,1675819784
217,ushtobe,45.2514,77.9838,-5.61,93,88,3.38,KZ,1675819784
218,narsaq,60.9167,-46.05,-21.88,66,0,3.53,GL,1675819784
219,port hardy,50.6996,-127.4199,5.1,87,75,3.09,CA,1675819785
220,saldanha,-33.0117,17.9442,17.03,89,0,6.72,ZA,1675819785
221,ginda,30.6945,78.4932,3.92,21,20,3.69,IN,1675819786
222,bijie,27.3125,105.2942,5.15,94,100,1.89,CN,1675819786
223,sidi ali,36.0998,0.4206,10.06,80,100,2.19,DZ,1675819786
224,bathsheba,13.2167,-59.5167,24.34,88,75,8.75,BB,1675819753
225,praya,14.9215,-23.5087,20.3,60,40,9.26,CV,1675819787
226,ruteng,-8.6136,120.4721,21.37,78,77,0.83,ID,1675819788
227,rudbar,30.15,62.6,14.44,39,9,2.45,AF,1675819297
228,camenca,48.0319,28.6978,-4.57,81,15,4.42,MD,1675819788
229,kaiyuan,23.6977,103.3037,13.39,82,25,2.66,CN,1675819788
230,vilyuysk,63.7553,121.6247,-37.87,99,99,0.89,RU,1675819789
231,hasaki,35.7333,140.8333,10.68,70,100,10.33,JP,1675819789
232,mahebourg,-20.4081,57.7,26.16,83,40,4.63,MU,1675819790
233,goya,-29.14,-59.2626,28.95,23,0,2.79,AR,1675819790
234,ramygala,55.5167,24.3,-2.28,92,66,4.02,LT,1675819791
235,kaeo,-35.1,173.7833,23.8,50,12,2.7,NZ,1675819553
236,ginir,7.1333,40.7,14.22,32,1,1.35,ET,1675819791
237,charleston,32.7766,-79.9309,15.15,80,100,2.06,US,1675819658
238,boddam,57.4667,-1.7833,2.46,83,97,7.55,GB,1675819792
239,rio gallegos,-51.6226,-69.2181,14.03,77,0,9.77,AR,1675819792
240,itacoatiara,-3.1431,-58.4442,23.6,97,100,1.23,BR,1675819736
241,ketchikan,55.3422,-131.6461,4.26,81,100,2.06,US,1675819793
242,calbuco,-41.768,-73.1273,16.56,87,0,3.13,CL,1675819793
243,chon buri,13.3,101.3,28.73,82,18,2.3,TH,1675819794
244,melito di porto salvo,37.9222,15.7714,7.52,49,75,2.06,IT,1675819794
245,sakakah,29.9697,40.2064,8.76,63,6,5.87,SA,1675819794
246,sortland,68.6949,15.4162,4.98,85,100,14.21,NO,1675819795
247,bairiki,1.3292,172.9752,30.0,66,20,9.77,KI,1675819795
248,mayo,38.8876,-76.5119,8.97,80,0,4.12,US,1675819796
249,takefu,35.9039,136.1669,8.48,78,15,2.21,JP,1675819796
250,harboore,56.6175,8.1807,4.52,94,100,5.7,DK,1675819797
251,khatanga,71.9667,102.5,-44.19,100,65,1.11,RU,1675819541
252,airai,-8.9266,125.4092,20.69,78,78,1.32,TL,1675819797
253,saint george,37.1041,-113.5841,10.8,38,0,4.12,US,1675819797
254,abu zabad,12.35,29.25,16.96,27,2,7.84,SD,1675819798
255,iberia,29.9502,-91.7507,22.04,88,100,3.09,US,1675819653
256,acari,-15.4311,-74.6158,24.93,79,58,2.02,PE,1675819798
257,kajansi,0.2081,32.5222,19.38,82,89,0.05,UG,1675819799
258,waingapu,-9.6567,120.2641,28.23,78,39,4.62,ID,1675819799
259,nyurba,63.2842,118.3319,-35.64,98,100,0.57,RU,1675819800
260,los llanos de aridane,28.6585,-17.9182,12.86,63,0,1.54,ES,1675819800
261,boa vista,2.8197,-60.6733,27.99,65,75,5.14,BR,1675819800
262,kenai,60.5544,-151.2583,-1.95,94,100,2.57,US,1675819594
263,hobyo,5.3505,48.5268,25.06,69,97,6.88,SO,1675819801
264,vancouver,49.2497,-123.1193,8.34,83,75,7.72,CA,1675819400
265,sisimiut,66.9395,-53.6735,-25.57,93,100,2.15,GL,1675819802
266,revda,56.801,59.9303,-20.66,99,57,2.17,RU,1675819802
267,borovskoy,53.8,64.15,-23.9,100,85,2.56,KZ,1675819803
268,high prairie,55.4334,-116.4858,-7.22,93,100,0.73,CA,1675819804
269,nakapiripirit,1.9167,34.7833,19.74,49,6,2.15,UG,1675819804
270,asau,46.4333,26.4,-5.49,97,97,1.97,RO,1675819805
271,kautokeino,69.0125,23.0412,-4.62,78,33,9.34,NO,1675819805
272,staroutkinsk,57.2302,59.3348,-24.22,100,100,1.38,RU,1675819806
273,vao,-22.6667,167.4833,26.79,70,13,6.01,NC,1675819806
274,mariental,-24.6333,17.9667,21.76,71,91,1.48,NA,1675819806
275,kahului,20.8947,-156.47,27.01,73,40,9.26,US,1675819724
276,doctor cecilio baez,-25.05,-56.3167,26.51,42,99,2.53,PY,1675819807
277,macau,22.2006,113.5461,21.03,88,40,4.12,MO,1675819808
278,kununurra,-15.7667,128.7333,32.99,55,7,3.09,AU,1675819808
279,bandarbeyla,9.4942,50.8122,25.08,74,98,7.11,SO,1675819613
280,ixtapa,20.7,-105.2,22.57,73,0,4.12,MX,1675819809
281,tabora,-5.0167,32.8,18.1,91,100,0.68,TZ,1675819809
282,bud,39.447,-86.1758,10.73,75,100,2.91,US,1675819810
283,cam ranh,11.9214,109.1591,25.98,78,40,2.06,VN,1675819810
284,nantucket,41.2835,-70.0995,2.03,82,100,4.12,US,1675819663
285,kamaishi,39.2667,141.8833,2.92,78,100,3.57,JP,1675819811
286,katsuura,35.1333,140.3,10.27,71,98,8.08,JP,1675819811
287,elban,50.1018,136.5094,-18.77,79,90,0.63,RU,1675819812
288,souillac,-20.5167,57.5167,26.21,83,40,4.63,MU,1675819729
289,wuwei,37.9281,102.6414,-2.25,52,100,3.27,CN,1675819264
290,chicama,-7.8447,-79.1469,22.3,73,44,2.97,PE,1675819756
291,ust-kuyga,70.0167,135.6,-46.22,99,73,2.65,RU,1675819813
292,fortuna,40.5982,-124.1573,13.29,75,20,0.0,US,1675819813
293,zhigansk,66.7697,123.3711,-44.49,98,100,2.91,RU,1675819814
294,paita,-5.0892,-81.1144,24.05,83,69,3.48,PE,1675819814
295,daan,33.0558,106.2958,6.58,94,100,1.57,CN,1675819815
296,saskylakh,71.9167,114.0833,-33.91,100,100,0.32,RU,1675819815
297,port blair,11.6667,92.75,27.02,69,40,3.6,IN,1675819816
298,west melbourne,28.0717,-80.6534,21.63,78,75,3.09,US,1675819768
299,ferkessedougou,9.6,-5.2,27.5,43,100,2.07,CI,1675819816
300,egvekinot,66.3167,-179.1667,-29.49,87,87,3.78,RU,1675819810
301,talnakh,69.4865,88.3972,-22.06,98,100,3.39,RU,1675819817
302,amahai,-3.3333,128.9167,29.35,65,95,1.52,ID,1675819817
303,phuthaditjhaba,-28.5242,28.8158,14.89,95,100,2.06,ZA,1675819817
304,viedma,-40.8135,-62.9967,19.38,69,11,4.41,AR,1675819619
305,pavlodar,52.3,76.95,-19.11,78,75,1.0,KZ,1675819818
306,vila velha,-20.3297,-40.2925,26.97,90,75,3.6,BR,1675819776
307,sistranda,63.7256,8.834,2.98,78,100,5.16,NO,1675819818
308,fare,-16.7,-151.0167,27.07,70,9,4.69,PF,1675819819
309,noumea,-22.2763,166.4572,31.99,99,95,4.46,NC,1675819545
310,kavaratti,10.5669,72.642,26.52,71,97,5.15,IN,1675819820
311,sile,41.1754,29.6133,4.76,57,90,3.58,TR,1675819820
312,isangel,-19.55,169.2667,26.84,82,100,2.08,VU,1675819738
313,jibuti,11.5,42.5,19.42,84,14,3.74,DJ,1675819820
314,riyadh,24.6877,46.7219,13.08,41,17,2.58,SA,1675819602
315,carinhanha,-14.3047,-43.765,23.6,56,9,1.21,BR,1675819615
316,panjab,34.388,67.0233,-9.02,76,100,1.56,AF,1675819257
317,avera,33.194,-82.5271,11.73,57,96,1.67,US,1675819821
318,olafsvik,64.8945,-23.7142,-2.35,57,100,12.84,IS,1675819259
319,barela,23.1,80.05,14.72,42,0,0.52,IN,1675819822
320,oranjemund,-28.55,16.4333,17.42,89,98,7.84,NA,1675819822
321,rundu,-17.9333,19.7667,17.88,94,100,1.6,NA,1675819823
322,sarkand,45.41,79.9186,-7.11,63,42,3.91,KZ,1675819823
323,luganville,-15.5333,167.1667,29.6,69,100,3.24,VU,1675819824
324,maragogi,-9.0122,-35.2225,24.9,71,100,2.75,BR,1675819824
325,wuchang,44.9143,127.15,-12.71,86,63,3.77,CN,1675819824
326,kuandian,40.7286,124.7847,-2.56,29,0,1.94,CN,1675819825
327,susuman,62.7833,148.1667,-32.18,94,99,0.65,RU,1675819825
328,marzuq,14.4,46.4667,16.48,56,5,2.11,YE,1675819710
329,zeya,53.75,127.2667,-25.4,84,16,0.52,RU,1675819826
330,northam,51.0333,-4.2167,3.67,93,0,2.7,GB,1675819682
331,lompoc,34.6391,-120.4579,17.1,80,40,3.09,US,1675819706
332,bilma,18.6853,12.9164,19.43,21,100,2.95,NE,1675819826
333,stepantsevo,56.1314,41.7032,-15.19,99,100,2.66,RU,1675819827
334,alamosa,37.4695,-105.87,0.99,19,0,0.0,US,1675819827
335,kayes,14.0,-11.0,25.75,14,53,4.28,ML,1675819828
336,rafaela,-31.2503,-61.4867,30.56,31,0,3.25,AR,1675819828
337,tawau,4.2498,117.8871,25.07,86,99,1.13,MY,1675819828
338,harper,4.375,-7.7169,26.04,85,100,3.13,LR,1675819829
339,nikolskoye,59.7035,30.7861,-1.06,86,100,4.5,RU,1675819829
340,san jeronimo,-11.9472,-75.2829,10.29,79,72,1.15,PE,1675819830
341,kutum,14.2,24.6667,12.7,34,9,4.72,SD,1675819555
342,sheoganj,25.15,73.0667,14.57,25,0,1.37,IN,1675819830
343,seguin,29.5688,-97.9647,21.51,91,100,5.14,US,1675819724
344,lokosovo,61.1333,74.8167,-28.77,100,71,2.04,RU,1675819831
345,thinadhoo,0.5333,72.9333,27.09,73,41,2.93,MV,1675819831
346,arkhara,49.4212,130.0842,-24.1,85,76,1.26,RU,1675819832
347,kaoma,-14.7833,24.8,16.86,99,98,1.82,ZM,1675819832
348,tessalit,20.1986,1.0114,20.9,14,68,3.71,ML,1675819832
349,sunrise manor,36.2111,-115.0731,15.08,26,0,2.57,US,1675819833
350,comodoro rivadavia,-45.8667,-67.5,20.92,32,0,1.54,AR,1675819748
351,zhengjiatun,43.5064,123.5064,-5.37,40,0,3.81,CN,1675819833
352,ozu,33.5,132.55,11.77,71,9,4.11,JP,1675819263
353,sola,-13.8833,167.55,27.72,77,94,6.54,VU,1675819834
354,morant bay,17.8815,-76.4093,26.79,82,13,5.61,JM,1675819687
355,porto belo,-27.1578,-48.5531,26.97,81,13,2.87,BR,1675819834
356,burgeo,47.6167,-57.6152,-8.03,81,100,8.88,CA,1675819835
357,vila do maio,15.1333,-23.2167,20.44,66,15,8.15,CV,1675819835
358,guerrero negro,27.9769,-114.0611,18.27,30,0,2.89,MX,1675819836
359,charters towers,-20.1,146.2667,31.02,50,96,4.66,AU,1675819836
360,cayenne,4.9333,-52.3333,25.02,94,75,0.0,GF,1675819593
361,macklin,52.3334,-109.9348,-2.81,97,97,0.47,CA,1675819837
362,adre,13.4667,22.2,17.67,26,47,9.08,TD,1675819837
363,nelson bay,-32.7167,152.15,27.28,64,60,1.34,AU,1675819838
364,ust-kan,50.9276,84.761,-18.22,97,53,1.6,RU,1675819838
365,sal rei,16.1833,-22.9167,19.73,65,4,8.86,CV,1675819838
366,dong hoi,17.4833,106.6,23.7,89,66,1.06,VN,1675819839
367,gravelbourg,49.8834,-106.5512,0.15,89,100,3.17,CA,1675819839
368,dakar,14.6937,-17.4441,19.49,76,96,9.06,SN,1675819832
369,eagle pass,28.7091,-100.4995,16.47,73,100,3.55,US,1675819794
370,rockland,41.1668,-74.0496,4.69,78,100,1.76,US,1675819840
371,baykit,61.67,96.37,-15.63,98,100,0.75,RU,1675819258
372,rio grande,-32.035,-52.0986,23.34,72,0,6.33,BR,1675819826
373,sokoto,13.0609,5.239,21.33,17,70,4.69,NG,1675819841
374,kabalo,-6.05,26.9167,19.89,97,100,1.21,CD,1675819842
375,portland,45.5234,-122.6762,10.01,88,75,2.57,US,1675819834
376,vardo,70.3705,31.1107,-2.01,86,8,9.26,NO,1675819842
377,formosa do rio preto,-11.0483,-45.1931,23.33,68,78,1.15,BR,1675819843
378,mocuba,-16.8392,36.9856,21.88,95,99,1.61,MZ,1675819843
379,lang son,21.8333,106.7333,18.75,95,100,1.77,VN,1675819844
380,gigmoto,13.7796,124.39,27.52,74,87,6.18,PH,1675819844
381,sao jose da coroa grande,-8.8978,-35.1478,24.97,71,100,2.79,BR,1675819845
382,kitimat,54.0524,-128.6534,1.21,31,93,1.23,CA,1675819845
383,iquique,-20.2208,-70.1431,23.02,81,16,1.2,CL,1675819610
384,vila franca do campo,37.7167,-25.4333,13.23,79,92,4.6,PT,1675819846
385,hof,50.3167,11.9167,-5.77,84,5,0.89,DE,1675819846
386,auriflama,-20.6856,-50.5547,21.46,92,100,1.13,BR,1675819846
387,port macquarie,-31.4333,152.9167,24.94,62,85,2.75,AU,1675819847
388,huicungo,-7.2833,-76.8,21.25,97,39,1.13,PE,1675819847
389,ulladulla,-35.35,150.4667,19.76,83,100,1.79,AU,1675819848
390,tanabe,33.7333,135.3667,11.56,66,20,7.2,JP,1675819848
391,xining,36.6167,101.7667,-2.32,84,100,0.85,CN,1675819848
392,fremont,37.5483,-121.9886,15.74,63,0,4.12,US,1675819847
393,bengkulu,-3.8004,102.2655,25.35,73,86,2.22,ID,1675819792
394,quang ngai,15.1167,108.8,25.17,80,63,1.6,VN,1675819849
395,meulaboh,4.1363,96.1285,26.0,76,89,0.97,ID,1675819850
396,kodinsk,58.6881,99.1844,-13.53,96,100,1.3,RU,1675819850
397,anchorage,61.2181,-149.9003,-0.38,86,100,2.57,US,1675819699
398,san quintin,30.4833,-115.95,15.15,51,0,2.01,MX,1675819850
399,coquimbo,-29.9533,-71.3436,17.85,88,100,1.54,CL,1675819567
400,mangrol,21.1167,70.1167,20.21,58,12,3.27,IN,1675819851
401,shache,38.4167,77.2406,-2.42,66,0,2.28,CN,1675819852
402,xai-xai,-25.0519,33.6442,22.9,95,69,2.3,MZ,1675819852
403,diepholz,52.6,8.3667,-1.43,58,94,1.63,DE,1675819802
404,labrea,-7.2586,-64.7981,22.73,96,73,0.63,BR,1675819853
405,flinders,-34.5833,150.8552,22.32,88,100,0.89,AU,1675819674
406,ludwigslust,53.3167,11.5,-2.88,52,92,2.43,DE,1675819853
407,bogale,16.2833,95.4,23.75,53,5,4.94,MM,1675819854
408,juneau,58.3019,-134.4197,2.34,94,100,1.54,US,1675819854
409,lata,40.1629,-8.3327,8.29,80,33,2.1,PT,1675819855
410,tinskoy,56.1525,96.9161,-7.46,96,100,1.9,RU,1675819855
411,te anau,-45.4167,167.7167,14.39,46,50,5.28,NZ,1675819856
412,malakal,9.5334,31.6605,23.54,16,0,4.48,SS,1675819856
413,mehamn,71.0357,27.8492,0.97,86,22,10.8,NO,1675819857
414,marsabit,2.3284,37.9899,19.71,43,2,2.25,KE,1675819857
415,santa marta,11.2408,-74.199,28.03,61,18,9.77,CO,1675819795
416,hervey bay,-25.2986,152.8535,26.93,60,71,8.67,AU,1675819858
417,wokha,26.1,94.2667,9.61,51,8,0.92,IN,1675819858
418,champerico,14.3,-91.9167,25.92,70,7,2.94,GT,1675819859
419,cuenca,-2.8833,-78.9833,16.07,63,75,2.06,EC,1675819759
420,vestmannaeyjar,63.4427,-20.2734,0.26,62,100,15.72,IS,1675819735
421,iskateley,67.6803,53.1512,1.38,92,100,9.43,RU,1675819859
422,sur,22.5667,59.5289,22.48,56,27,3.49,OM,1675819860
423,muroto,33.2833,134.15,12.14,64,18,2.95,JP,1675819713
424,mastic beach,40.7668,-72.8521,5.55,84,20,6.26,US,1675819860
425,kalianget,-7.05,113.9333,26.54,85,99,5.25,ID,1675819861
426,tosno,59.54,30.8775,-1.1,88,100,4.43,RU,1675819861
427,aklavik,68.2191,-135.0107,-29.14,95,100,3.61,CA,1675819567
428,rawson,-43.3002,-65.1023,18.65,60,3,2.85,AR,1675819852
429,denpasar,-8.65,115.2167,28.81,79,20,3.09,ID,1675819778
430,santa maria da vitoria,-13.3947,-44.1886,21.73,64,57,0.78,BR,1675819864
431,puerto escondido,15.85,-97.0667,27.46,65,20,0.0,MX,1675819865
432,okhotsk,59.3833,143.3,-24.01,80,89,5.4,RU,1675819868
433,saint-gaudens,43.0833,0.6667,3.34,81,62,1.1,FR,1675819872
434,barra patuca,15.8,-84.2833,24.04,85,17,5.32,HN,1675819873
435,alberton,46.8168,-64.0654,-5.05,94,42,2.32,CA,1675819875
436,tigil,57.8,158.6667,-20.72,92,100,3.97,RU,1675819877
437,camacha,33.0833,-16.3333,13.68,67,40,6.69,PT,1675819885
438,mikhaylovskoye,51.8239,79.7172,-21.45,100,100,1.33,RU,1675819893
439,isla vista,34.4133,-119.861,17.22,60,40,0.0,US,1675819903
440,portobelo,9.55,-79.65,23.95,85,95,7.64,PA,1675819911
441,capitan bado,-23.2667,-55.5333,22.06,70,96,1.43,PY,1675819912
442,katangli,51.7102,143.2326,-16.29,89,100,4.74,RU,1675819912
443,alice springs,-23.7,133.8833,32.75,40,0,4.63,AU,1675819913
444,svetlaya,46.5389,138.3297,-7.6,48,4,5.08,RU,1675819913
445,tres lagoas,-20.7511,-51.6783,21.8,84,100,1.03,BR,1675819914
446,jiayuguan,39.8167,98.3,-2.38,56,96,0.61,CN,1675819914
447,princeton,25.5384,-80.4089,23.34,74,0,4.63,US,1675819831
448,leningradskiy,69.3833,178.4167,-31.1,96,100,2.22,RU,1675819737
449,puerto carreno,6.189,-67.4859,27.97,52,10,2.61,CO,1675819915
450,warmbad,-28.45,18.7333,22.34,48,53,2.33,NA,1675819915
451,kaseda,31.4167,130.3167,13.28,57,56,5.06,JP,1675819916
452,stephenville,32.2207,-98.2023,7.88,98,100,6.17,US,1675819842
453,sao gabriel da cachoeira,-0.1303,-67.0892,22.62,98,100,0.27,BR,1675819916
454,ostrovnoy,68.0531,39.5131,-0.13,76,5,11.07,RU,1675819692
455,traralgon,-38.1833,146.5333,25.52,32,24,2.18,AU,1675819813
456,norman wells,65.282,-126.8329,-21.98,71,75,0.0,CA,1675819917
457,sinnamary,5.3833,-52.95,24.03,91,65,4.34,GF,1675819918
458,buraydah,26.326,43.975,8.25,42,100,2.85,SA,1675819706
459,guarapari,-20.6667,-40.4975,26.05,92,100,3.17,BR,1675819918
460,kartuzy,54.3342,18.1974,-1.45,91,100,4.63,PL,1675819919
461,eureka,40.8021,-124.1637,13.44,81,98,1.83,US,1675819919
462,lavrentiya,65.5833,-171.0,-25.72,92,97,1.24,RU,1675819919
463,kaabong,3.4836,34.1492,19.64,41,0,2.13,UG,1675819920
464,muravlenko,63.7898,74.523,-25.13,100,94,4.46,RU,1675819920
465,north platte,41.1239,-100.7654,1.32,82,0,3.13,US,1675819920
466,padang,-0.9492,100.3543,28.05,58,79,0.55,ID,1675819921
467,san ramon,37.7799,-121.978,13.83,64,0,4.12,US,1675819921
468,vagur,61.4732,-6.8119,7.79,81,100,25.66,FO,1675819922
469,port moresby,-9.4431,147.1797,25.68,94,100,5.14,PG,1675819922
470,alyangula,-13.8483,136.4192,30.31,65,100,1.8,AU,1675819923
471,casma,-41.0082,-73.1244,19.6,88,0,2.03,CL,1675819923
472,mount gambier,-37.8333,140.7667,22.48,44,18,4.76,AU,1675819924
473,lasa,46.6166,10.7002,-4.99,79,30,0.23,IT,1675819924
474,grand gaube,-20.0064,57.6608,26.22,80,32,3.13,MU,1675819924
475,tandil,-37.3217,-59.1332,24.27,38,99,3.88,AR,1675819629
476,tutoia,-2.7619,-42.2744,24.58,88,100,3.04,BR,1675819925
477,sibolga,1.7427,98.7792,26.86,60,100,0.62,ID,1675819926
478,copiapo,-27.3667,-70.3333,16.83,51,56,1.75,CL,1675819678
479,broome,42.2506,-75.833,4.14,75,100,4.92,US,1675819926
480,puerto madryn,-42.7692,-65.0385,19.83,51,0,3.74,AR,1675819927
481,manokwari,-0.8667,134.0833,26.15,85,100,0.77,ID,1675819927
482,victoria falls,-17.9235,25.843,18.63,86,84,1.39,ZW,1675819928
483,zonguldak,41.25,31.8333,-3.87,96,100,1.29,TR,1675819928
484,saquarema,-22.92,-42.5103,23.75,93,100,1.13,BR,1675819929
485,emerald,-23.5333,148.1667,27.97,54,20,4.57,AU,1675819929
486,mounana,-1.4085,13.1586,22.25,89,89,0.93,GA,1675819930
487,santa maria,-29.6842,-53.8069,24.61,65,20,3.09,BR,1675819805
488,kondinskoye,59.6481,67.41,-25.75,100,100,2.18,RU,1675819930
489,puerto narino,-3.7703,-70.3831,22.47,98,88,0.21,CO,1675819930
490,snasa,64.2457,12.3778,1.67,94,72,2.44,NO,1675819931
491,chake chake,-5.2459,39.7666,25.09,83,68,3.38,TZ,1675819931
492,camacupa,-12.0167,17.4833,15.91,82,100,0.64,AO,1675819932
493,taoudenni,22.6783,-3.9836,17.64,20,100,5.11,ML,1675819932
494,tenenkou,14.4572,-4.9169,25.46,16,56,4.46,ML,1675819933
495,belmonte,-15.8631,-38.8828,25.51,78,5,3.92,BR,1675819688
496,evensk,61.95,159.2333,-26.64,76,59,3.03,RU,1675819933
497,dongli,23.5656,116.8194,17.99,82,75,1.0,CN,1675819934
498,sioux lookout,50.1001,-91.917,-7.96,73,40,2.57,CA,1675819934
499,vanderhoof,54.0166,-124.0198,-3.87,98,100,1.4,CA,1675819934
500,gombong,-7.6072,109.5142,25.64,85,100,1.17,ID,1675819935
501,chara,56.9064,118.2631,-21.45,78,90,1.16,RU,1675819935
502,dubbo,-32.25,148.6167,30.07,42,40,3.09,AU,1675819936
503,babu,24.4167,111.5167,13.37,96,100,1.49,CN,1675819936
504,santo domingo,18.5001,-69.9886,25.02,82,20,2.57,DO,1675819405
505,shelburne,44.0787,-80.2041,1.42,96,100,6.17,CA,1675819842
506,steubenville,40.3698,-80.634,10.68,83,100,1.34,US,1675819937
507,llanes,43.4198,-4.7549,6.72,76,3,5.37,ES,1675819937
508,la asuncion,11.0333,-63.8628,23.93,87,98,6.09,VE,1675819758
509,mbuji-mayi,-6.15,23.6,20.45,92,100,1.54,CD,1675819938
510,college,64.8569,-147.8028,-11.0,78,75,0.0,US,1675819915
511,maues,-3.3836,-57.7186,23.16,97,100,0.25,BR,1675819939
512,san policarpo,12.1791,125.5072,27.38,74,100,6.6,PH,1675819939
513,port augusta,-32.5,137.7667,34.29,14,0,1.42,AU,1675819910
514,san patricio,28.017,-97.5169,23.42,80,94,6.22,US,1675819940
515,idah,7.1065,6.7342,25.25,75,40,1.93,NG,1675819940
516,ende,-8.8432,121.6623,29.0,75,18,0.16,ID,1675819941
517,pauini,-7.7136,-66.9764,22.57,93,98,0.87,BR,1675819941
518,wangqing,43.3218,129.7634,-6.66,58,11,2.87,CN,1675819942
519,luena,-11.7833,19.9167,16.24,94,100,0.65,AO,1675819942
520,pitimbu,-7.4706,-34.8086,25.33,73,99,4.01,BR,1675819943
521,sorong,-0.8833,131.25,26.8,81,100,1.64,ID,1675819943
522,ryotsu,38.0833,138.4333,5.96,70,61,2.3,JP,1675819944
523,aykhal,66.0,111.5,-38.48,100,82,1.25,RU,1675819944
524,socol,44.8608,21.3703,-4.34,86,100,0.97,RO,1675819944
525,springbok,-29.6643,17.8865,16.27,74,15,1.26,ZA,1675819945
526,lukulu,-14.3707,23.242,17.78,98,100,2.1,ZM,1675819945
527,gushikawa,26.3544,127.8686,20.77,73,75,3.6,JP,1675819946
528,leszno,51.8403,16.5749,-1.1,85,7,2.41,PL,1675819946
529,lagunas,-5.2269,-75.6753,23.13,88,51,0.95,PE,1675819946
530,pozoblanco,38.3791,-4.8483,4.78,91,100,1.44,ES,1675819947
531,mezen,65.8522,44.24,1.27,98,100,4.8,RU,1675819947
532,namibe,-15.1961,12.1522,21.12,75,95,2.09,AO,1675819948
533,palana,59.1167,159.9667,-24.18,95,100,5.06,RU,1675819948
534,christchurch,-43.5333,172.6333,24.67,51,20,6.17,NZ,1675819683
535,joshimath,30.5667,79.5667,1.85,36,1,4.37,IN,1675819949
536,tura,25.5198,90.2201,17.88,47,97,1.02,IN,1675819949
537,santa isabel do rio negro,-0.4139,-65.0192,23.59,92,39,0.99,BR,1675819950
538,dunedin,-45.8742,170.5036,15.04,53,55,7.24,NZ,1675819793
539,sao joao da barra,-21.6403,-41.0511,24.06,91,100,1.95,BR,1675819774
540,pemangkat,1.1667,108.9667,26.97,78,87,1.07,ID,1675819950
541,mezhdurechensk,53.6942,88.0603,-6.49,97,100,0.86,RU,1675819666
542,remigio,-6.9333,-35.7833,21.6,77,100,3.99,BR,1675819951
543,krasnoarmeysk,51.0239,45.6969,-15.27,97,92,4.96,RU,1675819951
544,solano,38.2333,-121.9511,14.77,66,99,1.25,US,1675819952
545,khudumelapye,-23.8833,24.75,18.62,87,100,3.57,BW,1675819952
546,beringovskiy,63.05,179.3167,-27.3,94,82,3.45,RU,1675819953
547,nemuro,43.3236,145.575,-3.25,59,35,1.97,JP,1675819953
548,central point,42.376,-122.9164,11.21,64,100,0.0,US,1675819886
549,potsdam,52.3989,13.0657,-0.53,90,81,1.6,DE,1675819509
550,kruisfontein,-34.0033,24.7314,19.38,82,100,2.1,ZA,1675819707
551,amapa,1.0,-52.0,22.22,99,100,0.91,BR,1675819954
552,kidal,18.4411,1.4078,23.77,14,90,3.12,ML,1675819954
553,georgiyevka,43.0369,74.7114,-6.98,93,100,1.0,KZ,1675819955
554,newcastle,-32.9272,151.7765,27.49,63,40,5.14,AU,1675819671
555,gergebil,42.5047,47.0661,-1.77,71,85,1.76,RU,1675819955
556,nome,64.5011,-165.4064,-21.02,71,0,1.54,US,1675819744
557,kiruna,67.8557,20.2251,-0.49,74,86,9.77,SE,1675819956
558,geraldton,-28.7667,114.6,25.23,57,0,5.14,AU,1675819673
559,karasuk,53.7377,78.0403,-19.75,99,97,1.62,RU,1675819956
560,half moon bay,37.4636,-122.4286,15.7,69,0,6.69,US,1675819822
561,kloulklubed,7.0419,134.2556,28.28,76,100,8.03,PW,1675819957
562,chabahar,25.2919,60.643,21.71,66,7,1.55,IR,1675819957
563,tigzirt,36.8886,4.1198,11.72,63,100,1.67,DZ,1675819958
564,magadan,59.5667,150.8,-26.93,70,40,3.01,RU,1675819958
565,catamarca,-28.4696,-65.7852,30.99,44,100,1.79,AR,1675819846
566,tucuma,-0.1833,-50.05,23.9,93,100,2.11,BR,1675819959
567,berlevag,70.8578,29.0864,2.0,80,20,11.83,NO,1675819959
568,san juan,-31.5375,-68.5364,33.27,21,9,7.26,AR,1675819960
569,hokitika,-42.7167,170.9667,17.84,52,61,7.17,NZ,1675819960
570,price,39.5994,-110.8107,-1.05,59,0,1.54,US,1675819841
571,ocampo,21.65,-101.5,15.03,23,100,2.43,MX,1675819961
572,oistins,13.0667,-59.5333,24.05,88,75,8.75,BB,1675819677
573,husavik,66.0449,-17.3389,-4.52,70,96,6.11,IS,1675819961
574,manicore,-5.8092,-61.3003,23.97,94,0,1.03,BR,1675819962
575,itarema,-2.9248,-39.9167,25.47,82,100,3.94,BR,1675819962
576,whitehorse,60.7161,-135.0538,-3.57,63,40,7.72,CA,1675819881
577,viransehir,37.2353,39.7631,0.33,84,90,0.97,TR,1675819963
578,sobolevo,54.4299,31.8996,-15.44,99,64,1.59,RU,1675819963
579,bolshaya rechka,51.9503,104.7355,-22.64,93,72,0.69,RU,1675819964
580,berbera,10.4396,45.0143,23.97,81,11,1.6,SO,1675819964
581,yar-sale,66.8333,70.8333,-15.65,85,100,8.39,RU,1675819784
582,pisco,-13.7,-76.2167,24.03,83,0,6.17,PE,1675819772
583,gizo,-8.103,156.8419,29.18,73,100,5.99,SB,1675819965
584,marsh harbour,26.5412,-77.0636,21.79,62,0,8.15,BS,1675819770
585,ayagoz,47.9714,80.4392,-6.69,95,100,0.38,KZ,1675819965
586,kavieng,-2.5744,150.7967,27.59,79,99,4.0,PG,1675819966
